[
  {
    "stop_id": "08223",
    "stop_name": "Vigo Urzáiz",
    "stop_lat": 42.234960,
    "stop_lon": -8.711909
  },
  {
    "stop_id": "31412",
    "stop_lat": 43.3504,
    "stop_lon": -8.412142,
    "stop_name": "A Coruña"
  },
  {
    "stop_id": "23021",
    "stop_lat": 42.78122,
    "stop_lon": -8.656493,
    "stop_name": "Padrón-Barbanza"
  },
  {
    "stop_id": "08224",
    "stop_lat": 42.28455,
    "stop_lon": -8.603739,
    "stop_name": "Redondela AV"
  },
  {
    "stop_id": "22201",
    "stop_name": "O Porriño"
  },
  {
    "stop_id": "22006",
    "stop_name": "Barra de Miño"
  },
  {
    "stop_id": "20208",
    "stop_name": "Quereño"
  },
  {
    "stop_id": "22109",
    "stop_name": "Salvaterra de Miño"
  },
  {
    "stop_id": "20410",
    "stop_name": "Elviña-Universidade"
  },
  {
    "stop_id": "20318",
    "stop_name": "Piñoi"
  },
  {
    "stop_id": "21002",
    "stop_name": "Miño"
  },
  {
    "stop_id": "31304",
    "stop_name": "O Carballiño"
  },
  {
    "stop_id": "96122",
    "stop_name": "Barcelos"
  },
  {
    "stop_id": "94033",
    "stop_name": "Viana do Castelo"
  },
  {
    "stop_id": "22308",
    "stop_lat": 42.23930,
    "stop_lon": -8.71226
  },
  {
    "stop_id": "22402",
    "stop_name": "Valença do Minho"
  },
  {
    "stop_id": "21010",
    "feed_id": "general",
    "stop_lat": 43.4880356421007,
    "stop_lon": -8.230795701069612
  },
  {
    "stop_id": "99117",
    "stop_name": "Ourense Turístico",
    "_delete": true
  },
  {
    "stop_id": "99143",
    "stop_name": "A Coruña - Turístico",
    "_delete": true
  },
    {
    "stop_id": "99159",
    "stop_name": "Santiago Turístico",
    "_delete": true
  },
  {
    "stop_id": "99161",
    "stop_name": "Pontevedra Turístico",
    "_delete": true
  },
  {
    "stop_id": "05156",
    "stop_name": "Viveiro - Apeadero",
    "stop_lat": 43.66307948733166,
    "stop_lon": -7.592119972501223
  },
  {
    "stop_id": "05299",
    "stop_name": "Castropol",
    "stop_lat": 43.50879091456042,
    "stop_lon": -7.013783988194376
  },
  {
    "stop_id": "05265",
    "stop_name": "Tablizo",
    "stop_lat": 43.548132589750224,
    "stop_lon": -6.351521338297374
  },
  {
    "stop_id": "05263",
    "stop_name": "Ballota",
    "stop_lat": 43.55092647470215,
    "stop_lon": -6.322749469667542
  },
  {
    "stop_id": "15211",
    "stop_name": "Oviedo/Uviéu",
    "stop_lat": 43.366680663195496,
    "stop_lon": -5.855315584365599
          
  }
]
